{
    "records": [
        {
            "attributes": {
                "type": "Account",
                "referenceId": "AccountRef1"
            },
            "Name": "*Alpine Nutrition - Austin",
            "Rating": "Hot",
            "Type": "Outlet Store",
            "Industry": "Retail",
            "Phone": "+187342432",
            "Website": "www.site.com",
            "NumberOfEmployees": 240,
            "CTCPG__DivisionAlphaCategory__c": "Discounter",
            "CTCPG__DivisionAlphaTargetCheck__c": true,
            "AnnualRevenue": 400000,
            "SalesPlan__c": 100000,
            "BillingAddress": {
                "city": "Austin",
                "country": "USA",
                "geocodeAccuracy": "Zip",
                "latitude": 30.2438,
                "longitude": -97.7639,
                "postalCode": "78704",
                "state": "TX",
                "street": "Bouldin"
            },
            "BillingCountry": "USA",
            "BillingStreet": "Bouldin",
            "BillingState": "TX",
            "BillingPostalCode": "78704",
            "BillingCity": "Austin",
            "ShippingGeo__c": {
                "latitude": 30.247559,
                "longitude": -97.756187
            }
        },
        {
            "attributes": {
                "type": "Account",
                "referenceId": "AccountRef2"
            },
            "Name": "*Alpine Nutrition - New York",
            "Type": "Other",
            "Industry": "Retail",
            "Phone": "+13478233244",
            "Website": "https://bfplny.com/",
            "NumberOfEmployees": 1899,
            "CTCPG__DivisionAlphaCategory__c": "Discounter",
            "CTCPG__DivisionAlphaTargetCheck__c": false,
            "AnnualRevenue": 1000000,
            "BillingAddress": {
                "city": "New York",
                "country": "USA",
                "geocodeAccuracy": "Block",
                "latitude": 40.714309,
                "longitude": -74.015471,
                "postalCode": "10281",
                "state": "NY",
                "street": "230 Vesey St"
            },
            "BillingCountry": "USA",
            "BillingStreet": "230 Vesey St",
            "BillingState": "NY",
            "BillingPostalCode": "10281",
            "BillingCity": "New York",
            "ShippingGeo__c": {
                "latitude": 40.712506,
                "longitude": -74.015446
            }
        },
        {
            "attributes": {
                "type": "Account",
                "referenceId": "AccountRef3"
            },
            "Name": "*Alpine Nutrition - Noe Valley",
            "Type": "Outlet Store",
            "CTCPG__DivisionAlphaTargetCheck__c": false,
            "BillingAddress": {
                "city": "San Francisco",
                "country": "USA",
                "geocodeAccuracy": "Address",
                "latitude": 37.74939,
                "longitude": -122.434919,
                "postalCode": "94114",
                "state": "CA",
                "street": "4237 25th St"
            },
            "BillingCountry": "USA",
            "BillingStreet": "4237 25th St",
            "BillingState": "CA",
            "BillingPostalCode": "94114",
            "BillingCity": "San Francisco",
            "ShippingGeo__c": {
                "latitude": 37.749259,
                "longitude": -122.434821
            }
        }
    ]
}